id,name.local,name.en,name.slug,code.id,geo.lat,geo.lon
CF614_alindao,Alindao,Alindao,alindao,CF614_alindao,5.05,21.217
CF614_bakou,Bakou,Bakou,bakou,CF614_bakou,4.838,21.206
CF614_guiligui,Guiligui,Guiligui,guiligui,CF614_guiligui,4.922,21.381
CF614_kotto,Kotto,Kotto,kotto,CF614_kotto,5.233,21.683
CF614_seliba,Seliba,Seliba,seliba,CF614_seliba,5.392,21.412
CF614_siriki,Siriki,Siriki,siriki,CF614_siriki,4.944,21.694
